[
  {
    "name": "Test Mall",
    "region": "Riyadh",
    "address": "Al Ulia King Fahad St. First floor,Riyadh,SA ",
    "lat": "24.633333",
    "lng": "46.716667",
    "phone": "112078555",
    "email": "gallery-riyadh@fayendra.com",
    "website": "https://fayendra.com",
    "image": "https://cdn.shopify.com/s/files/1/0720/0371/5297/files/gallery.jpg?v=1747134682"
  },
  {
    "name": "Riyadh Gallery Mall",
    "region": "Riyadh",
    "address": "Al Ulia King Fahad St. First floor,Riyadh,SA ",
    "lat": "24.633333",
    "lng": "46.716667",
    "phone": "112078555",
    "email": "gallery-riyadh@fayendra.com",
    "website": "https://fayendra.com",
    "image": "https://cdn.shopify.com/s/files/1/0720/0371/5297/files/gallery.jpg?v=1747134682"
  },
  {
    "name": "Hayat Mall",
    "region": "Riyadh",
    "address": "King Fahad Dest. King Abdulaziz St. Ground floor,Riyadh,SA",
    "lat": "24.7422501",
    "lng": "46.6772004",
    "phone": "112058182",
    "email": "alhayat-riyadh@fayendra.com",
    "website": "https://fayendra.com",
    "image": "https://cdn.shopify.com/s/files/1/0720/0371/5297/files/hayat_riyadh.jpg?v=1747134014"
  },
  {
    "name": "Nakheel Mall Riyadh",
    "region": "Riyadh",
    "address": "Al Mugharizat Al Nuzha Dest. Ground floor,Riyadh,SA",
    "lat": "24.7679478",
    "lng": "46.7123611",
    "phone": "550753422",
    "email": "nakheel-riyadh@fayendra.com",
    "website": "https://fayendra.com",
    "image": "https://cdn.shopify.com/s/files/1/0720/0371/5297/files/nakheel_riyadh.jpg?v=1747137004"
  },
  {
    "name": "Salam Mall Riyadh",
    "region": "Riyadh",
    "address": "Dhahrat Nemar Westren Rind Rd.,Riyadh,SA",
    "lat": "24.5583003",
    "lng": "46.6362965",
    "phone": "112478915",
    "email": "alsalam-riyadh@fayendra.com",
    "website": "https://fayendra.com",
    "image": "https://cdn.shopify.com/s/files/1/0720/0371/5297/files/salam_riyadh.jpg?v=1747139502"
  },
  {
    "name": "Othaim Mall",
    "region": "Riyadh",
    "address": "Khurais service road,Riyadh,SA",
    "lat": "24.6854678",
    "lng": "46.7743489",
    "phone": "531465932",
    "email": "riyadh-othaim@fayendra.com",
    "website": "https://fayendra.com",
    "image": "https://cdn.shopify.com/s/files/1/0720/0371/5297/files/othaim_riyadh.jpg?v=1747134968"
  },
  {
    "name": "Alalia Plaza",
    "region": "Riyadh",
    "address": "Aley Plaza Al Rabiea 'neighborhood Al Thumama Road,Riyadh,SA",
    "lat": "24.8087404",
    "lng": "46.6679263",
    "phone": "557936455",
    "email": "riyadh-aliya@fayendra.com",
    "website": "https://fayendra.com",
    "image": "https://cdn.shopify.com/s/files/1/0720/0371/5297/files/aliya_plaza.jpg?v=1747134446"
  },
  {
    "name": "Al Hamra Mall",
    "region": "Riyadh",
    "address": "King Abdullah Rd Gate 3,Riyadh,SA",
    "lat": "24.7740396",
    "lng": "46.775725",
    "phone": "557675649",
    "email": "alhamra-riyadh@fayendra.com",
    "website": "https://fayendra.com",
    "image": "https://cdn.shopify.com/s/files/1/0720/0371/5297/files/hamraaMall.jpg?v=1747040937"
  },
  {
    "name": "Park Avenue",
    "region": "Riyadh",
    "address": "Park Avenue Showroom Riyadh Gate 2,Riyadh,SA",
    "lat": "24.828183",
    "lng": "46.7246587",
    "phone": "920011955",
    "email": "park-avenue@fayendra.com",
    "website": "https://fayendra.com",
    "image": "https://cdn.shopify.com/s/files/1/0720/0371/5297/files/park_avenue.jpg?v=1747135762"
  },
  {
    "name": "Riyadh Park ",
    "region": "Riyadh",
    "address": "Gate 2, second floor, in front of Ibrahim Al-Qurashi,Riyadh,SA",
    "lat": "24.7562706",
    "lng": "46.6286631",
    "phone": "920011955",
    "email": "riyadh-park@fayendra.com",
    "website": "https://fayendra.com",
    "image": "https://cdn.shopify.com/s/files/1/0720/0371/5297/files/RiyadhPark.jpg?v=1747040721"
  },
  {
    "name": "Mall Of Arabia",
    "region": "Jeddah",
    "address": "Al Nuzha Madinah Rd. First floor,Jeddah,SA",
    "lat": "21.6326895",
    "lng": "39.1559067",
    "phone": "126547652",
    "email": "arab-jeddah@fayendra.com",
    "website": "https://fayendra.com",
    "image": "https://cdn.shopify.com/s/files/1/0720/0371/5297/files/arab_jeddah.jpg?v=1747058032"
  },
  {
    "name": "Alandalos Mall",
    "region": "Jeddah",
    "address": "Al Fayha'a Prince Majed St. Ground floor,Jeddah,SA",
    "lat": "21.5068202",
    "lng": "39.215728",
    "phone": "502922685",
    "email": "alandalos-jeddah@fayendra.com",
    "website": "https://fayendra.com",
    "image": "https://cdn.shopify.com/s/files/1/0720/0371/5297/files/andalous_jed.jpg?v=1747055948"
  },
  {
    "name": "Salam Mall Jeddah",
    "region": "Jeddah",
    "address": "Al Nuzha Madinah Rd. First floor,Jeddah,SA",
    "lat": "21.5082617",
    "lng": "39.2229625",
    "phone": "122683332",
    "email": "salam-Jeddah@fayendra.com",
    "website": "https://fayendra.com",
    "image": "https://cdn.shopify.com/s/files/1/0720/0371/5297/files/salam_mall.jpg?v=1747056963"
  },
  {
    "name": "Aziz Mall",
    "region": "Jeddah",
    "address": "Faisaliah Prince Majed ST.,Jeddah,SA",
    "lat": "21.5769511",
    "lng": "39.1934601",
    "phone": "554484229",
    "email": "aziz-Jeddah@fayendra.com",
    "website": "https://fayendra.com",
    "image": "https://cdn.shopify.com/s/files/1/0720/0371/5297/files/Aziz_Jeddah.jpg?v=1747127288"
  },
  {
    "name": "Yasmin Mall",
    "region": "Jeddah",
    "address": "Almanar Ring road.,Jeddah,SA",
    "lat": "21.5921543",
    "lng": "39.2255139",
    "phone": "126303492",
    "email": "yasmin-Jeddah@fayendra.com",
    "website": "https://fayendra.com",
    "image": "https://cdn.shopify.com/s/files/1/0720/0371/5297/files/yasmine_jeddah.jpg?v=1747135207"
  },
  {
    "name": "Taif The Park Mall",
    "region": "Jeddah",
    "address": "the park mall - taif Main gate,Taif,SA",
    "lat": "21.4299395",
    "lng": "40.498627",
    "phone": "557223463",
    "email": "thepark-taif@fayendra.com",
    "website": "https://fayendra.com",
    "image": "https://cdn.shopify.com/s/files/1/0720/0371/5297/files/the_park.jpg?v=1747061031"
  },
  {
    "name": "Makkah Mall",
    "region": "Makkah",
    "address": "Al Ja'ameah King Abdallah St. Ground floor ,Makkah,SA",
    "lat": "21.3910837",
    "lng": "39.8797179",
    "phone": "125240145",
    "email": "makkah-makkah@fayendra.com",
    "website": "https://fayendra.com",
    "image": "https://cdn.shopify.com/s/files/1/0720/0371/5297/files/Makka_Mall.jpg?v=1747134116"
  },
  {
    "name": "Abraj Albait Mall Branch 1",
    "region": "Makkah",
    "address": "Al Hajlah Ajyad St. front of the Holy Mosque Ground Floor ,Makkah,SA",
    "lat": "21.4194703",
    "lng": "39.823252",
    "phone": "920011955",
    "email": "abraj-g-makkah@fayendra.com",
    "website": "https://fayendra.com",
    "image": "https://cdn.shopify.com/s/files/1/0720/0371/5297/files/aulwei_1.jpg?v=1747223020"
  },
  {
    "name": "Abraj Albait Mall Branch 3",
    "region": "Makkah",
    "address": "Al Hajlah Ajyad St. front of the Holy Mosque First floor ,Makkah,SA",
    "lat": "21.416115",
    "lng": "39.825185",
    "phone": "920011955",
    "email": "abraj-f-makkah@fayendra.com",
    "website": "https://fayendra.com",
    "image": "https://cdn.shopify.com/s/files/1/0720/0371/5297/files/2.jpg?v=1744896899"
  },
  {
    "name": "Abraj Albait Mall Branch 2",
    "region": "Makkah",
    "address": "Al Hajlah Ajyad St. front of the Holy Mosque First floor,Makkah,SA",
    "lat": "21.416115",
    "lng": "39.825185",
    "phone": "920011955",
    "email": "makkah-albayt@fayendra.com",
    "website": "https://fayendra.com",
    "image": "https://cdn.shopify.com/s/files/1/0720/0371/5297/files/abraj_2.jpg?v=1747134838"
  },
  {
    "name": "Hilton Almasjid Alharam",
    "region": "Makkah",
    "address": "Al Hajlah Ajyad St. front of the Holy Mosque Ground floor ,Makkah,SA",
    "lat": "21.4220184",
    "lng": "39.8183099",
    "phone": "539396657",
    "email": "makkah-hilton@fayendra.com",
    "website": "https://fayendra.com",
    "image": "https://cdn.shopify.com/s/files/1/0720/0371/5297/files/hilton.jpg?v=1747134245"
  },
  {
    "name": "Omar Mountain Conrand",
    "region": "Makkah",
    "address": "Ibrahim Al Khalil Street Jabal Omar, Hebron Markets Conrad,Makkah,SA",
    "lat": "21.2411475",
    "lng": "39.5664545",
    "phone": "563145898",
    "email": "Makkah-Conrand@fayendra.com",
    "website": "https://fayendra.com",
    "image": "https://cdn.shopify.com/s/files/1/0720/0371/5297/files/Conrad.jpg?v=1747138380"
  },
  {
    "name": "Hills village",
    "region": "Makkah",
    "address": "Millennium - Al Rajhi Towers -Alnaseem neighborhood Millennium Hotel, first floor ,Makkah,SA",
    "lat": "21.420847",
    "lng": "39.826869",
    "phone": "563145906",
    "email": "makkah-millennium@fayendra.com",
    "website": "https://fayendra.com",
    "image": "https://cdn.shopify.com/s/files/1/0720/0371/5297/files/Milenuim.jpg?v=1747145691"
  },
  {
    "name": "Jumeirah",
    "region": "Makkah",
    "address": "Ibrahim Al Khalil Street Jabal Omar, Hebron Markets,Makkah,SA",
    "lat": "21.419024",
    "lng": "39.817338",
    "phone": "557907786",
    "email": "makkah-jumira@fayendra.com",
    "website": "https://fayendra.com",
    "image": "https://cdn.shopify.com/s/files/1/0720/0371/5297/files/jabalOmar.jpg?v=1747040416"
  },
  {
    "name": "Hayat Regency",
    "region": "Makkah",
    "address": "Second floor opposite Gate No. 1,Makkah,SA",
    "lat": "21.4220284",
    "lng": "39.8183099",
    "phone": "920011955",
    "email": "hyaat_regency@fayendra.com",
    "website": "https://fayendra.com",
    "image": "https://cdn.shopify.com/s/files/1/0720/0371/5297/files/regency.jpg?v=1747133397"
  },
  {
    "name": "Hejaz Mall",
    "region": "Makkah",
    "address": "Gate 1 - First Floor,Makkah,SA",
    "lat": "21.4234751",
    "lng": "39.7825404",
    "phone": "920011955",
    "email": "alhijaz-mall@fayendra.com",
    "website": "https://fayendra.com",
    "image": "https://cdn.shopify.com/s/files/1/0720/0371/5297/files/hijazMall.jpg?v=1747041740"
  },
  {
    "name": "Mall Of Dhahran",
    "region": "Eastern Region",
    "address": "Al Dawhah Al Janubiah Dhahran Ground Floor,Dammam,SA",
    "lat": "26.3045379",
    "lng": "50.1710426",
    "phone": "138915374",
    "email": "dhahran-dammam@fayendra.com",
    "website": "https://fayendra.com",
    "image": "https://cdn.shopify.com/s/files/1/0720/0371/5297/files/dahran_mall.jpg?v=1747060240"
  },
  {
    "name": "Al Othaim Mall Dammam",
    "region": "Eastern Region",
    "address": "Al Shifa Prince Mohammed Bin Fahad St. First Floor,Dammam,SA",
    "lat": "26.3999101",
    "lng": "50.1144194",
    "phone": "553156820",
    "email": "othaim-dammam@fayendra.com",
    "website": "https://fayendra.com",
    "image": "https://cdn.shopify.com/s/files/1/0720/0371/5297/files/othaimDammam.jpg?v=1747042155"
  },
  {
    "name": "Nakheel Mall Dammam",
    "region": "Eastern Region",
    "address": "Al Manar King Fahad St.Ground Floor,Dammam,SA",
    "lat": "26.3915958",
    "lng": "50.0350221",
    "phone": "133311005",
    "email": "nakheel-dammam@fayendra.com",
    "website": "https://fayendra.com",
    "image": "https://cdn.shopify.com/s/files/1/0720/0371/5297/files/nakheel_dammam.jpg?v=1747137395"
  },
  {
    "name": "Othaim Mall Ahsa",
    "region": "Eastern Region",
    "address": "MabrezThurayiat Street. Ground Floor,Ahsa,SA",
    "lat": "25.4003379",
    "lng": "49.5777805",
    "phone": "135830168",
    "email": "othaim-ahsa@fayendra.com",
    "website": "https://fayendra.com",
    "image": "https://cdn.shopify.com/s/files/1/0720/0371/5297/files/OthaimAhsaa.jpg?v=1748104086"
  },
  {
    "name": "Al Ahsa Mall",
    "region": "Eastern Region",
    "address": "Gharnatah King Abdullah Rd Al Hofuf Ground Floor,Ahsa,SA",
    "lat": "25.3290193",
    "lng": "49.5492266",
    "phone": "135621017",
    "email": "alahsa-ahsa@fayendra.com",
    "website": "https://fayendra.com",
    "image": "https://cdn.shopify.com/s/files/1/0720/0371/5297/files/othaim_ahsa_2.jpg?v=1747055521"
  },
  {
    "name": "Othaim Mall Hafir Albatin",
    "region": "Eastern Region",
    "address": "King Abdulaziz Rd, Al Wurud, Hafar Al Batin 39821,SA",
    "lat": "28.3181433",
    "lng": "45.9488576",
    "phone": "550660312",
    "email": "othaim-Hafir@fayendra.com",
    "website": "https://fayendra.com",
    "image": "https://cdn.shopify.com/s/files/1/0720/0371/5297/files/othaim-hafirbatin.jpg?v=1747040597"
  },
  {
    "name": "Othaim Mall Hail",
    "region": "Hail",
    "address": "Al Naqra Ground Floor,Hail,SA",
    "lat": "27.4739916",
    "lng": "41.6759878",
    "phone": "165344497",
    "email": "salma-hail@fayendra.com",
    "website": "https://fayendra.com",
    "image": "https://cdn.shopify.com/s/files/1/0720/0371/5297/files/hail.jpg?v=1747060498"
  },
  {
    "name": "Dana Mall",
    "region": "Yanbu",
    "address": "Royal Commission Aziziah,yanbu ,SA",
    "lat": "24.032639",
    "lng": "38.192899",
    "phone": "553083550",
    "email": "dana-yanbu@fayendra.com",
    "website": "https://fayendra.com",
    "image": "https://cdn.shopify.com/s/files/1/0720/0371/5297/files/yunbuu.jpg?v=1747133543"
  },
  {
    "name": "Al Rashed Mall Abha",
    "region": "Southern Region",
    "address": "Al Badee King Fahad St. First Floor,Abha,SA",
    "lat": "18.2371639",
    "lng": "42.5796373",
    "phone": "553860937",
    "email": "rashed-abha@fayendra.com",
    "website": "https://fayendra.com",
    "image": "https://cdn.shopify.com/s/files/1/0720/0371/5297/files/AL_RASHID_MALL_ABHA.jpg?v=1745673195"
  },
  {
    "name": "Mujan Park",
    "region": "Southern Region",
    "address": "Al Nuzha Khamis Mushit. Ground Floor,Khamis Mushet,SA",
    "lat": "18.2850637",
    "lng": "42.7361098",
    "phone": "172203331",
    "email": "khamais-mujan@fayendra.com",
    "website": "https://fayendra.com",
    "image": "https://cdn.shopify.com/s/files/1/0720/0371/5297/files/MUJAN_PARK.jpg?v=1745673195"
  },
  {
    "name": "Al Rashed Mall Jazan",
    "region": "Southern Region",
    "address": "Al Shatee Prince Mohammed Bin Nasser Ground Floor,Jizan,SA",
    "lat": "16.901998",
    "lng": "42.5522185",
    "phone": "173224055",
    "email": "rashed-jazan@fayendra.com",
    "website": "https://fayendra.com",
    "image": "https://cdn.shopify.com/s/files/1/0720/0371/5297/files/rashedJazan.jpg?v=1747042308"
  },
  {
    "name": "Najran Park",
    "region": "Southern Region",
    "address": "Alkhaldiah Najran,Najran,SA",
    "lat": "17.5489197",
    "lng": "44.2483589",
    "phone": "504364996",
    "email": "NajranPark-Najran@fayendra.com",
    "website": "https://fayendra.com",
    "image": "https://cdn.shopify.com/s/files/1/0720/0371/5297/files/najran.jpg?v=1747062759"
  },
  {
    "name": "Lavanda Park",
    "region": "Southern Region",
    "address": "Lavanda Park,Abha,SA",
    "lat": "18.2401239",
    "lng": "42.6009257",
    "phone": "553860937",
    "email": "lavanda-park@fayendra.com",
    "website": "https://fayendra.com",
    "image": "https://cdn.shopify.com/s/files/1/0720/0371/5297/files/lavanrdraPark.jpg?v=1747041107"
  },
  {
    "name": "Kadi Mall Jizan",
    "region": "Southern Region",
    "address": "Kadi Mall Gate 3,Jizan,SA",
    "lat": "16.9083934",
    "lng": "42.5414933",
    "phone": "531876112",
    "email": "kadi-jazan@fayendra.com",
    "website": "https://fayendra.com",
    "image": "https://cdn.shopify.com/s/files/1/0720/0371/5297/files/cadymall.jpg?v=1747059724"
  },
  {
    "name": "Taybah Shopping Center",
    "region": "Madinah",
    "address": "Bada'ah Al Markaziah North Ground Floor ,Madinah,SA",
    "lat": "24.4711316",
    "lng": "39.6115274",
    "phone": "148200015",
    "email": "taybah-madinah@fayendra.com",
    "website": "https://fayendra.com",
    "image": "https://cdn.shopify.com/s/files/1/0720/0371/5297/files/tayba.jpg?v=1747058534"
  },
  {
    "name": "Anwaar Al Madinah Movenpick",
    "region": "Madinah",
    "address": "Bada'ah Al Markaziah North Ground Floor,Madinah,SA",
    "lat": "24.4712105",
    "lng": "39.6074037",
    "phone": "148180183",
    "email": "movenpick-madinah@fayendra.com",
    "website": "https://fayendra.com",
    "image": "https://cdn.shopify.com/s/files/1/0720/0371/5297/files/movenpick.jpg?v=1747058170"
  },
  {
    "name": "Dar Al Taqwa Hotel",
    "region": "Madinah",
    "address": "Bada'ah Al Markaziah North Ground Floor,Madinah,SA",
    "lat": "24.4706591",
    "lng": "39.6106823",
    "phone": "148180184",
    "email": "dar-madinah@fayendra.com",
    "website": "https://fayendra.com",
    "image": "https://cdn.shopify.com/s/files/1/0720/0371/5297/files/dar_takwa.jpg?v=1747059259"
  },
  {
    "name": "Al Rashid Mega Mall",
    "region": "Madinah",
    "address": "Shazah King Abdallah St. First floor,Madinah,SA",
    "lat": "24.4865483",
    "lng": "39.6483172",
    "phone": "148358404",
    "email": "alrashed-madinah@fayendra.com",
    "website": "https://fayendra.com",
    "image": "https://cdn.shopify.com/s/files/1/0720/0371/5297/files/rashed_madina.jpg?v=1747146208"
  },
  {
    "name": "Alia Mall",
    "region": "Madinah",
    "address": "Alia Mall,Madinah,SA",
    "lat": "24.4135453",
    "lng": "39.6178797",
    "phone": "184196871",
    "email": "aliya-madinah@fayendra.com",
    "website": "https://fayendra.com",
    "image": "https://cdn.shopify.com/s/files/1/0720/0371/5297/files/aleyaMall_Madinah.jpg?v=1746993569"
  },
  {
    "name": "Nakheel Plaza",
    "region": "Qassim",
    "address": "King Khaled St, Al Safra, Buraydah, Al Qassim,Al Qassim,SA",
    "lat": "26.3687845",
    "lng": "43.9604634",
    "phone": "163837182",
    "email": "nakheel-qassim@fayendra.com",
    "website": "https://fayendra.com",
    "image": "https://cdn.shopify.com/s/files/1/0720/0371/5297/files/nakheel_quossaim.jpg?v=1747060666"
  },
  {
    "name": "Arar Othaim",
    "region": "Arar",
    "address": "Othaim Mall,ArAr,SA",
    "lat": "30.9550653",
    "lng": "41.0059386",
    "phone": "146642309",
    "email": "othaim-Arar@fayendra.com",
    "website": "https://fayendra.com",
    "image": "https://cdn.shopify.com/s/files/1/0720/0371/5297/files/arar.jpg?v=1747142762"
  },
  {
    "name": "Tabuk Park",
    "region": "Tabuk",
    "address": "Tabuk Park,Tabuk,SA",
    "lat": "28.428363",
    "lng": "36.5734825",
    "phone": "920011955",
    "email": "tabuk-park@fayendra.com",
    "website": "https://fayendra.com",
    "image": "https://cdn.shopify.com/s/files/1/0720/0371/5297/files/tabukPark.jpg?v=1747040657"
  },
  {
    "name": "Elbaha Mall",
    "region": "Al-Bahah",
    "address": "Al Baha Mall,baha,SA",
    "lat": "20.072541",
    "lng": "41.527732",
    "phone": "535572615",
    "email": "elbaha.mall@fayendra.com",
    "website": "https://fayendra.com",
    "image": "https://cdn.shopify.com/s/files/1/0720/0371/5297/files/baahaMall.jpg?v=1747041031"
  },
  {
    "name": "Bawabat Sharq Mall",
    "region": "Abu Dhabi",
    "address": "Baniyas East Ground Floor,Abu Dhabi,UAE",
    "lat": "24.3119784",
    "lng": "54.6196209",
    "phone": "25868810",
    "email": "baniyas-abudhabi@fayendra.com",
    "website": "https://fayendra.com",
    "image": "https://cdn.shopify.com/s/files/1/0720/0371/5297/files/Baniyas.jpg?v=1747127730"
  },
  {
    "name": "Mushrif Mall",
    "region": "Abu Dhabi",
    "address": "Al Mushrif Old Airport Rd. First floor,Abu Dhabi,UAE",
    "lat": "24.4340902",
    "lng": "54.413644",
    "phone": "26722245",
    "email": "mushrif-abudhabi@fayendra.com",
    "website": "https://fayendra.com",
    "image": "https://cdn.shopify.com/s/files/1/0720/0371/5297/files/mushrif_mall_2.jpg?v=1747135480"
  },
  {
    "name": "Deerfields Mall",
    "region": "Abu Dhabi",
    "address": "Al Bahia Abu Dhabi Shahama Rd. Third floor,Abu Dhabi,UAE",
    "lat": "24.5235087",
    "lng": "54.6711286",
    "phone": "25857880",
    "email": "deerfield-abudhabi@fayendra.com",
    "website": "https://fayendra.com",
    "image": "https://cdn.shopify.com/s/files/1/0720/0371/5297/files/derfields.jpg?v=1747135685"
  },
  {
    "name": "Reem Mall",
    "region": "Abu Dhabi",
    "address": "Reem Island Ground Floor,Abu Dhabi,UAE",
    "lat": "24.4883682",
    "lng": "54.4003859",
    "phone": "22460718",
    "email": "dalma-abudhabi@fayendra.com",
    "website": "https://fayendra.com",
    "image": "https://cdn.shopify.com/s/files/1/0720/0371/5297/files/Reem_Mall.jpg?v=1747126479"
  },
  {
    "name": "Nakheel Mall Dubai",
    "region": "Dubai",
    "address": "Palm Jumeirah Ground Floor,Dubai,UAE",
    "lat": "25.1145815",
    "lng": "55.1396246",
    "phone": "45833340",
    "email": "nakheel-dubai@Fayendra.com",
    "website": "https://fayendra.com",
    "image": "https://cdn.shopify.com/s/files/1/0720/0371/5297/files/nakheel_dubai.jpg?v=1747137150"
  },
  {
    "name": "Zahia City Center",
    "region": "Sharjah",
    "address": "Muwaileh Commercial - Al Zahia - Sharjah ,Zahia,UAE",
    "lat": "25.3006638",
    "lng": "55.4402338",
    "phone": "67158111",
    "email": "zahia-sharjah@fayendra.com",
    "website": "https://fayendra.com",
    "image": "https://cdn.shopify.com/s/files/1/0720/0371/5297/files/zahia_Sharjah.jpg?v=1747127402"
  }
]