[
  {
    "name": "الرياض جاليري مول",
    "region": "الرياض", 
    "address": "  العليا، شارع الملك فهد، الطابق الأول، بالقرب من البوابة 4و5 رقم المحل 79  ،الرياض، السعودية  ",
    "lat": "24.633333",
    "lng": "46.716667",
    "phone": "112078555",
    "email": "gallery-riyadh@fayendra.com",
    "website": "https://fayendra.com",
    "image": "https://cdn.shopify.com/s/files/1/0720/0371/5297/files/gallery.jpg?v=1747134682"
  },
  {
    "name": "الحياة مول",
    "region": "الرياض",
    "address": "حي الملك فهد، شارع الملك عبدالعزيز، الطابق الأرضي، الدور الثالث ، بالقرب من بوابة 5. رقم المحل 55 ، الرياض ،السعودية ",
    "lat": "24.7422501",
    "lng": "46.6772004",
    "phone": "112058182",
    "email": "alhayat-riyadh@fayendra.com",
    "website": "https://fayendra.com",
    "image": "https://cdn.shopify.com/s/files/1/0720/0371/5297/files/hayat_riyadh.jpg?v=1747134014"
  },
  {
    "name": "النخيل مول",
    "region": "الرياض",
    "address": "حي المغيرات، حي النزهة، الطابق الأرضي، بالقرب من بوابة 5 رقم المحل 55 ،الرياض ، السعودية ",
    "lat": "24.7679478",
    "lng": "46.7123611",
    "phone": "550753422",
    "email": "nakheel-riyadh@fayendra.com",
    "website": "https://fayendra.com",
    "image": "https://cdn.shopify.com/s/files/1/0720/0371/5297/files/nakheel_riyadh.jpg?v=1747137004"
  },
  {
    "name": "السلام مول",
    "region": "الرياض",
    "address": "ظهرة نمار الغربي، الطريق الدائري الغربي، بالقرب من بوابة 1 ،الرياض ، السعودية",
    "lat": "24.5583003",
    "lng": "46.6362965",
    "phone": "112478915",
    "email": "alsalam-riyadh@fayendra.com",
    "website": "https://fayendra.com",
    "image": "https://cdn.shopify.com/s/files/1/0720/0371/5297/files/salam_riyadh.jpg?v=1747139502"
  },
  {
    "name": " العثيم مول",
    "region": "الرياض",
    "address": "طريق خريص الفرعي،بالقرب من بوابة 3 و 4 ، الرياض، السعودية",
    "lat": "24.6854678",
    "lng": "46.7743489",
    "phone": "531465932",
    "email": "riyadh-othaim@fayendra.com",
    "website": "https://fayendra.com",
    "image": "https://cdn.shopify.com/s/files/1/0720/0371/5297/files/othaim_riyadh.jpg?v=1747134968"
  },
  {
    "name": "العالية بلازا",
    "region": "الرياض",
    "address": "بلازا العليا، حي الربيع، طريق الثمامة، الرياض، السعودية",
    "lat": "24.8087404",
    "lng": "46.6679263",
    "phone": "557936455",
    "email": "riyadh-aliya@fayendra.com",
    "website": "https://fayendra.com",
    "image": "https://cdn.shopify.com/s/files/1/0720/0371/5297/files/aliya_plaza.jpg?v=1747134446"
  },
  {
    "name": "الحمراء مول",
    "region": "الرياض",
    "address": "طريق الملك عبدالله، البوابة 3، الدور الأول، مقابل صيدلية النهدي ،الرياض، السعودية",
    "lat": "24.7740396",
    "lng": "46.775725",
    "phone": "557675649",
    "email": "alhamra-riyadh@fayendra.com",
    "website": "https://fayendra.com",
    "image": "https://cdn.shopify.com/s/files/1/0720/0371/5297/files/hamraaMall.jpg?v=1747040937"
  },
  {
    "name": "بارك افينيو",
    "region": "الرياض",
    "address":"معرض بارك أفينيو، بوابة 2، الرياض، السعودية",
    "lat": "24.828183",
    "lng": "46.7246587",
    "phone": "558254746",
    "email": "park-avenue@fayendra.com",
    "website": "https://fayendra.com",
    "image": "https://cdn.shopify.com/s/files/1/0720/0371/5297/files/park_avenue.jpg?v=1747135762"
  },
  {
    "name": "الرياض بارك",
    "region": "الرياض",
    "address": "البوابة 2، الطابق الثاني، مقابل إبراهيم القرشي، الرياض، السعودية",
    "lat": "24.7562706",
    "lng": "46.6286631",
    "phone": "920011955",
    "email": "riyadh-park@fayendra.com",
    "website": "https://fayendra.com",
    "image": "https://cdn.shopify.com/s/files/1/0720/0371/5297/files/RiyadhPark.jpg?v=1747040721"
  },
  {
    "name": "مول العرب",
    "region": "جدة",
    "address": "حي النزهة ، طريق المدينة، الطابق الأول ، بالقرب من بوابة 4 ، رقم المحل 101 ، جدة، السعودية",
    "lat": "21.6326895",
    "lng": "39.1559067",
    "phone": "126547652",
    "email": "arab-jeddah@fayendra.com",
    "website": "https://fayendra.com",
    "image": "https://cdn.shopify.com/s/files/1/0720/0371/5297/files/arab_jeddah.jpg?v=1747058032"
  },
  {
    "name": "الأندلس مول ",
    "region": "جدة",
    "address": "حي الفيحاء ، شارع الأمير ماجد، الطابق الأرضي، بالقرب من بوابة 2 ، رقم المحل 86 ، جدة ، السعودية",
    "lat": "21.5068202",
    "lng": "39.215728",
    "phone": "502922685",
    "email": "alandalos-jeddah@fayendra.com",
    "website": "https://fayendra.com",
    "image": "https://cdn.shopify.com/s/files/1/0720/0371/5297/files/andalous_jed.jpg?v=1747055948"
  },
  {
    "name": "السلام مول",
    "region": "جدة",
    "address": "حي النزهة ، طريق المدينة، الطابق الأول، بالقرب من بوابة 1 و 2 ، جدة ، السعودية",
    "lat": "21.5082617",
    "lng": "39.2229625",
    "phone": "122683332",
    "email": "salam-Jeddah@fayendra.com",
    "website": "https://fayendra.com",
    "image": "https://cdn.shopify.com/s/files/1/0720/0371/5297/files/salam_mall.jpg?v=1747056963"
  },
  {
    "name": "عزيز مول",
    "region": "جدة",
    "address": "الفيصلية ، شارع الأمير ماجد ، بالقرب من بوابة 1 ، جدة، السعودية",
    "lat": "21.5769511",
    "lng": "39.1934601",
    "phone": "554484229",
    "email": "aziz-Jeddah@fayendra.com",
    "website": "https://fayendra.com",
    "image": "https://cdn.shopify.com/s/files/1/0720/0371/5297/files/Aziz_Jeddah.jpg?v=1747127288"
  },
  {
    "name": "الياسمين مول",
    "region": "جدة",
    "address": "حي المنار، الطريق الدائري، بالقرب من بوابة  1، جدة، السعودية",
    "lat": "21.5921543",
    "lng": "39.2255139",
    "phone": "126303492",
    "email": "yasmin-Jeddah@fayendra.com",
    "website": "https://fayendra.com",
    "image": "https://cdn.shopify.com/s/files/1/0720/0371/5297/files/yasmine_jeddah.jpg?v=1747135207"
  },
  {
    "name": "ذا بارك الطائف",
    "region": "جدة",
    "address": "مول ذا بارك - الطائف، البوابة الرئيسية، الطائف، السعودية",
    "lat": "21.4299395",
    "lng": "40.498627",
    "phone": "557223463",
    "email": "thepark-taif@fayendra.com",
    "website": "https://fayendra.com",
    "image": "https://cdn.shopify.com/s/files/1/0720/0371/5297/files/the_park.jpg?v=1747061031"
  },
  {
    "name": "مكة مول",
    "region": "مكة",
    "address": "حي الجامعة، شارع الملك عبدالله، الطابق الأرضي،بالقرب من بوابة 4 و 5 ، رقم المحل 118 ، مكة المكرمة، السعودية",
    "lat": "21.3910837",
    "lng": "39.8797179",
    "phone": "125240145",
    "email": "makkah-makkah@fayendra.com",
    "website": "https://fayendra.com",
    "image": "https://cdn.shopify.com/s/files/1/0720/0371/5297/files/Makka_Mall.jpg?v=1747134116"
  },
  {
    "name": "أبراج البيت مول - الفرع 1",
    "region": "مكة",
    "address": "شارع الحجلة أجياد، أمام المسجد الحرام، الطابق الأرضي، بالقرب من بوابة 1 ، رقم المحل 02-17 ، مكة المكرمة، السعودية",
    "lat": "21.4194703",
    "lng": "39.823252",
    "phone": "125719795",
    "email": "abraj-g-makkah@fayendra.com",
    "website": "https://fayendra.com",
    "image": "https://cdn.shopify.com/s/files/1/0720/0371/5297/files/aulwei_1.jpg?v=1747223020"
  },
  {
    "name": "أبراج البيت مول - الفرع 2",
    "region": "مكة",
    "address": "شارع الحجلة أجياد، أمام المسجد الحرام، الطابق الأول ،بالقرب من بوابة 1 ، رقم المحل 1-04-05، مكة المكرمة، السعودية",
    "lat": "21.416115",
    "lng": "39.825185",
    "phone": "920011955",
    "email": "abraj-f-makkah@fayendra.com",
    "website": "https://fayendra.com",
    "image": "https://cdn.shopify.com/s/files/1/0720/0371/5297/files/abraj_2.jpg?v=1747134838"
  },
  {
    "name": "أبراج البيت مول - الفرع 3",
    "region": "مكة",
    "address": " شارع الحجلة، أجياد، أمام المسجد الحرام، الطابق الأول ، بالقرب من بوابة 1 ، رقم المحل 01-5-22 ، مكة المكرمة، السعودية",
    "lat": "21.416115",
    "lng": "39.825185",
    "phone": "125719798",
    "email": "makkah-albayt@fayendra.com",
    "website": "https://fayendra.com",
    "image": "https://cdn.shopify.com/s/files/1/0720/0371/5297/files/2.jpg?v=1744896899"
  },
  {
    "name": "هيلتون المسجد الحرام",
    "region": "مكة",
    "address": " شارع الحجلة،أجياد، أمام المسجد الحرام، الطابق الأرضي، بالقرب من بوابة 1 و رقم المحل: 52، مكة المكرمة، السعودية",
    "lat": "21.4220184",
    "lng": "39.8183099",
    "phone": "920011955",
    "email": "makkah-hilton@fayendra.com",
    "website": "https://fayendra.com",
    "image": "https://cdn.shopify.com/s/files/1/0720/0371/5297/files/hilton.jpg?v=1747134245"
  },
  {
    "name": "جبل عمر كونر​اد",
    "region": "مكة",
    "address": "شارع إبراهيم الخليل، جبل عمر، أسواق الخليل، كونراد، البوابة 3 ، مكة المكرمة، السعودية",
    "lat": "21.2411475",
    "lng": "39.5664545",
    "phone": "563145898",
    "email": "Makkah-Conrand@fayendra.com",
    "website": "https://fayendra.com",
    "image": "https://cdn.shopify.com/s/files/1/0720/0371/5297/files/Conrad.jpg?v=1747138380"
  },
  {
    "name": "قرية التلال",
    "region": "مكة",
    "address": "فندق ميلينيوم، أبراج الراجحي، حي النسيم، الطابق الأول، مقابل بوابه مسجد الراجحي ، مكة المكرمة، السعودية",
    "lat": "21.420847",
    "lng": "39.826869",
    "phone": "563145906",
    "email": "makkah-millennium@fayendra.com",
    "website": "https://fayendra.com",
    "image": "https://cdn.shopify.com/s/files/1/0720/0371/5297/files/Milenuim.jpg?v=1747145691"
  },
  {
    "name": "جبل عمر جميرا",
    "region": "مكة",
    "address": "شارع إبراهيم الخليل، جبل عمر، أسواق الخليل، بوابة 4 ، مكة المكرمة، السعودية",
    "lat": "21.419024",
    "lng": "39.817338",
    "phone": "557907786",
    "email": "makkah-jumira@fayendra.com",
    "website": "https://fayendra.com",
    "image": "https://cdn.shopify.com/s/files/1/0720/0371/5297/files/jabalOmar.jpg?v=1747040416"
  },
  {
    "name": "حياة ريجنسي",
    "region": "مكة",
    "address": "الطابق الثاني، مقابل بوابة رقم 1، مكة المكرمة، السعودية",
    "lat": "21.4220284",
    "lng": "39.8183099",
    "phone": "555641968",
    "email": "hyaat_regency@fayendra.com",
    "website": "https://fayendra.com",
    "image": "https://cdn.shopify.com/s/files/1/0720/0371/5297/files/regency.jpg?v=1747133397"
  },
  {
    "name": "الحجاز مول",
    "region": "مكة",
    "address": "بوابة 1، الطابق الأول، مكة المكرمة، السعودية",
    "lat": "21.4234751",
    "lng": "39.7825404",
    "phone": "920011955",
    "email": "alhijaz-mall@fayendra.com",
    "website": "https://fayendra.com",
    "image": "https://cdn.shopify.com/s/files/1/0720/0371/5297/files/hijazMall.jpg?v=1747041740"
  },
  {
    "name": "الظهران مول",
    "region": "المنطقة الشرقية",
    "address": "الدوحة الجنوبية، الظهران، الطابق الأرضي، بالقرب من بوابة 6  ، رقم المحل : 27 ،الدمام، السعودية",
    "lat": "26.3045379",
    "lng": "50.1710426",
    "phone": "138915374",
    "email": "dhahran-dammam@fayendra.com",
    "website": "https://fayendra.com",
    "image": "https://cdn.shopify.com/s/files/1/0720/0371/5297/files/dahran_mall.jpg?v=1747060240"
  },
  {
    "name": "العثيم مول - الدمام",
    "region": "المنطقة الشرقية",
    "address": "حي الشفاء، شارع الأمير محمد بن فهد، الطابق الأول، بالقرب من بوابة 2 ، الدمام، السعودية",
    "lat": "26.3999101",
    "lng": "50.1144194",
    "phone": "553156820",
    "email": "othaim-dammam@fayendra.com",
    "website": "https://fayendra.com",
    "image": "https://cdn.shopify.com/s/files/1/0720/0371/5297/files/othaimDammam.jpg?v=1747042155"
  },
  {
    "name": "النخيل مول - الدمام",
    "region": "المنطقة الشرقية",
    "address": "حي المنار، شارع الملك فهد، الطابق الأرضي، بالقرب من بوابة 1 ، الدمام، السعودية",
    "lat": "26.3915958",
    "lng": "50.0350221",
    "phone": "133311005",
    "email": "nakheel-dammam@fayendra.com",
    "website": "https://fayendra.com",
    "image": "https://cdn.shopify.com/s/files/1/0720/0371/5297/files/nakheel_dammam.jpg?v=1747137395"
  },
  {
    "name": "العثيم مول - الأحساء",
    "region": "المنطقة الشرقية",
    "address": "المبرز، شارع الثريات، الطابق الأرضي،بالقرب من بوابة 3 ، رقم المحل 25 ، الأحساء، السعودية",
    "lat": "25.4003379",
    "lng": "49.5777805",
    "phone": "135830168",
    "email": "othaim-ahsa@fayendra.com",
    "website": "https://fayendra.com",
    "image": "https://cdn.shopify.com/s/files/1/0720/0371/5297/files/OthaimAhsaa.jpg?v=1748104086"
  },
  {
    "name": "الأحساء مول",
    "region": "المنطقة الشرقية",
    "address": "غرناطة طريق الملك عبدالله، الهفوف، الطابق الأرضي، بالقرب من بوابة 4 ، رقم المحل : 065 ، الأحساء ، السعودية",
    "lat": "25.3290193",
    "lng": "49.5492266",
    "phone": "135621017",
    "email": "alahsa-ahsa@fayendra.com",
    "website": "https://fayendra.com",
    "image": "https://cdn.shopify.com/s/files/1/0720/0371/5297/files/othaim_ahsa_2.jpg?v=1747055521"
  },
  {
    "name": "العثيم مول - حفر الباطن",
    "region": "المنطقة الشرقية",
    "address": "حي الورود، طريق الملك عبدالعزيز، بالقرب من بوابة 1  ، حفر الباطن، السعودية",
    "lat": "28.3181433",
    "lng": "45.9488576",
    "phone": "550660312",
    "email": "othaim-Hafir@fayendra.com",
    "website": "https://fayendra.com",
    "image": "https://cdn.shopify.com/s/files/1/0720/0371/5297/files/othaim-hafirbatin.jpg?v=1747040597"
  },
  {
    "name": "العثيم مول - حائل",
    "region": "حائل",
    "address": "حي النقرة، الطابق الأرضي، بالقرب من بوابة 1 ، حائل، السعودية",
    "lat": "27.4739916",
    "lng": "41.6759878",
    "phone": "165344497",
    "email": "salma-hail@fayendra.com",
    "website": "https://fayendra.com",
    "image": "https://cdn.shopify.com/s/files/1/0720/0371/5297/files/hail.jpg?v=1747060498"
  },
  {
    "name": "الدانة مول",
    "region": "ينبع",
    "address": " شارع الملك عبد العزيز، العزيزية الهيئة الملكية، بالقرب من بوابة 1 ، ينبع ،السعودية",
    "lat": "24.032639",
    "lng": "38.192899",
    "phone": "553083550",
    "email": "dana-yanbu@fayendra.com",
    "website": "https://fayendra.com",
    "image": "https://cdn.shopify.com/s/files/1/0720/0371/5297/files/yunbuu.jpg?v=1747133543"
  },
  {
    "name": "الراشد مول - أبها",
    "region": "المنطقة الجنوبية",
    "address": "البادي، شارع الملك فهد، الطابق الأول، بالقرب من بوابة 6 ، أبها، السعودية",
    "lat": "18.2371639",
    "lng": "42.5796373",
    "phone": "553860937",
    "email": "rashed-abha@fayendra.com",
    "website": "https://fayendra.com",
    "image": "https://cdn.shopify.com/s/files/1/0720/0371/5297/files/AL_RASHID_MALL_ABHA.jpg?v=1745673195"
  },
  {
    "name": "موجان بارك",
    "region": "المنطقة الجنوبية",
    "address": "النزهة خميس مشيط. الطابق الارضي، بالقرب من بوابة 2 ، خميس مشيط ، السعودية",
    "lat": "18.2850637",
    "lng": "42.7361098",
    "phone": "172203331",
    "email": "khamais-mujan@fayendra.com",
    "website": "https://fayendra.com",
    "image": "https://cdn.shopify.com/s/files/1/0720/0371/5297/files/MUJAN_PARK.jpg?v=1745673195"
  },
  {
    "name": "الراشد مول - جازان",
    "region": "المنطقة الجنوبية",
    "address": "الشاطئ الأمير محمد بن ناصر الطابق الأرضي، بالقرب من بوابة 5 رقم المحل 132، جيزان، السعودية",
    "lat": "16.901998",
    "lng": "42.5522185",
    "phone": "173224055",
    "email": "rashed-jazan@fayendra.com",
    "website": "https://fayendra.com",
    "image": "https://cdn.shopify.com/s/files/1/0720/0371/5297/files/rashedJazan.jpg?v=1747042308"
  },
  {
    "name": " نجران بارك ",
    "region": "المنطقة الجنوبية",
    "address": "نجران بارك - بالقرب من بوابة 1 ، نجران، السعودية",
    "lat": "17.5489197",
    "lng": "44.2483589",
    "phone": "504364996",
    "email": "NajranPark-Najran@fayendra.com",
    "website": "https://fayendra.com",
    "image": "https://cdn.shopify.com/s/files/1/0720/0371/5297/files/najran.jpg?v=1747062759"
  },
  {
    "name": "لافاندا بارك",
    "region": "المنطقة الجنوبية",
    "address": "لافاندا بارك الموظفين طريق الملك فهد ، بالقرب من بوابة 1 و 2 ، أبها، السعودية",
    "lat": "18.2401239",
    "lng": "42.6009257",
    "phone": "553860937",
    "email": "lavanda-park@fayendra.com",
    "website": "https://fayendra.com",
    "image": "https://cdn.shopify.com/s/files/1/0720/0371/5297/files/lavanrdraPark.jpg?v=1747041107"
  },
  {
    "name": "كادي مول",
    "region": "المنطقة الجنوبية",
    "address": "كادي مول - البوابة 3 - جازان ، السعودية",
    "lat": "16.9083934",
    "lng": "42.5414933",
    "phone": "531876112",
    "email": "kadi-jazan@fayendra.com",
    "website": "https://fayendra.com",
    "image": "https://cdn.shopify.com/s/files/1/0720/0371/5297/files/cadymall.jpg?v=1747059724"
  },
  {
    "name": "مركز طيبة للتسوق",
    "region": "المدينة المنورة",
    "address": " المركزية الشمالية الدور الارضي ، بالقرب من البوابة الرئيسية ,المدينة المنورة، السعودية",
    "lat": "24.4711316",
    "lng": "39.6115274",
    "phone": "148200015",
    "email": "taybah-madinah@fayendra.com",
    "website": "https://fayendra.com",
    "image": "https://cdn.shopify.com/s/files/1/0720/0371/5297/files/tayba.jpg?v=1747058534"
  },
  {
    "name": "أنوار المدينة موفنبيك",
    "region": "المدينة المنورة",
    "address": " المركزية الشمالية الدور الارضي - البوابة الرئيسية , المدينة المنورة ، السعودية",
    "lat": "24.4712105",
    "lng": "39.6074037",
    "phone": "148180183",
    "email": "movenpick-madinah@fayendra.com",
    "website": "https://fayendra.com",
    "image": "https://cdn.shopify.com/s/files/1/0720/0371/5297/files/movenpick.jpg?v=1747058170"
  },
  {
    "name": "فندق دار التقوى",
    "region": "المدينة المنورة",
    "address": " المركزية الشمالية الدور الارضي ,أمام المسجد النبوي ، المدينة المنورة، السعودية",
    "lat": "24.4706591",
    "lng": "39.6106823",
    "phone": "148180184",
    "email": "dar-madinah@fayendra.com",
    "website": "https://fayendra.com",
    "image": "https://cdn.shopify.com/s/files/1/0720/0371/5297/files/dar_takwa.jpg?v=1747059259"
  },
  {
    "name": "الراشد ميغا مول",
    "region": "المدينة المنورة",
    "address": "الراشد ميغا مول, شظاه, طريق الملك عبد الله ، بالقرب من بوابة 6رقم المحل: 71 ، المدينة المنورة ، السعودية",
    "lat": "24.4865483",
    "lng": "39.6483172",
    "phone": "148358404",
    "email": "alrashed-madinah@fayendra.com",
    "website": "https://fayendra.com",
    "image": "https://cdn.shopify.com/s/files/1/0720/0371/5297/files/rashed_madina.jpg?v=1747146208"
  },
  {
    "name": "العالية مول",
    "region": "المدينة المنورة",
    "address": "عالية مول، بالقرب من بوابة 2 ، المدينة المنورة، السعودية",
    "lat": "24.4135453",
    "lng": "39.6178797",
    "phone": "184196871",
    "email": "aliya-madinah@fayendra.com",
    "website": "https://fayendra.com",
    "image": "https://cdn.shopify.com/s/files/1/0720/0371/5297/files/aleyaMall_Madinah.jpg?v=1746993569"
  },
  {
    "name": "النخيل بلازا",
    "region": "القصيم",
    "address": "شارع الملك خالد، الصفراء ، بريدة، بالقرب من بوابة 1، رقم المحل 16 ، القصيم ، السعودية",
    "lat": "26.3687845",
    "lng": "43.9604634",
    "phone": "163837182",
    "email": "nakheel-qassim@fayendra.com",
    "website": "https://fayendra.com",
    "image": "https://cdn.shopify.com/s/files/1/0720/0371/5297/files/nakheel_quossaim.jpg?v=1747060666"
  },
  {
    "name": "العثيم مول - عرعر",
    "region": "عرعر",
    "address": "العثيم مول ، الدور الاول ، عرعر ، السعودية  ",
    "lat": "30.9550653",
    "lng": "41.0059386",
    "phone": "146642309",
    "email": "othaim-Arar@fayendra.com",
    "website": "https://fayendra.com",
    "image": "https://cdn.shopify.com/s/files/1/0720/0371/5297/files/arar.jpg?v=1747142762"
  },
  {
    "name": "تبوك بارك",
    "region": "تبوك",
    "address": "تبوك بارك - بالقرب من بوابة 2 ، تبوك ، السعودية",
    "lat": "28.428363",
    "lng": "36.5734825",
    "phone": "920011955",
    "email": "tabuk-park@fayendra.com",
    "website": "https://fayendra.com",
    "image": "https://cdn.shopify.com/s/files/1/0720/0371/5297/files/tabukPark.jpg?v=1747040657"
  },
  {
    "name": "الباحة مول",
    "region": "الباحة",
    "address": "الباحة مول- الباحة ، السعودية",
    "lat": "20.072541",
    "lng": "41.527732",
    "phone": "535572615",
    "email": "elbaha.mall@fayendra.com",
    "website": "https://fayendra.com",
    "image": "https://cdn.shopify.com/s/files/1/0720/0371/5297/files/baahaMall.jpg?v=1747041031"
  },
  {
    "name": "بني ياس - بوابة الشرق مول",
    "region": "أبو ظبي",
    "address": "بني ياس شرق، الدور الأرضي,أبو ظبي، الإمارات العربية المتحدة",
    "lat": "24.3119784",
    "lng": "54.6196209",
    "phone": "25868810",
    "email": "baniyas-abudhabi@fayendra.com",
    "website": "https://fayendra.com",
    "image": "https://cdn.shopify.com/s/files/1/0720/0371/5297/files/Baniyas.jpg?v=1747127730"
  },
  {
    "name": "بوابة الشرق مول المشرف مول ",
    "region": "أبو ظبي",
    "address": "طريق المطار القديم المشرف، الدور الأول,أبو ظبي، الإمارات العربية المتحدة",
    "lat": "24.4340902",
    "lng": "54.413644",
    "phone": "26722245",
    "email": "mushrif-abudhabi@fayendra.com",
    "website": "https://fayendra.com",
    "image": "https://cdn.shopify.com/s/files/1/0720/0371/5297/files/mushrif_mall_2.jpg?v=1747135480"
  },
  {
    "name": "ديرفيلدز مول",
    "region": "أبو ظبي",
    "address": "الباهية ابو ظبي طريق الشهانة، الدورالثالث,أبو ظبي، الإمارات العربية المتحدة",
    "lat": "24.5235087",
    "lng": "54.6711286",
    "phone": "25857880",
    "email": "deerfield-abudhabi@fayendra.com",
    "website": "https://fayendra.com",
    "image": "https://cdn.shopify.com/s/files/1/0720/0371/5297/files/derfields.jpg?v=1747135685"
  },
  {
    "name": "ريم مول",
    "region": "أبو ظبي",
    "address": "جزيرة الريم، الدور الأرضي,أبو ظبي، الإمارات العربية المتحدة",
    "lat": "24.4883682",
    "lng": "54.4003859",
    "phone": "22460718",
    "email": "dalma-abudhabi@fayendra.com",
    "website": "https://fayendra.com",
    "image": "https://cdn.shopify.com/s/files/1/0720/0371/5297/files/Reem_Mall.jpg?v=1747126479"
  },
  {
    "name": "النخيل مول",
    "region": "دبي",
    "address": "النخيل جميرة، الدور الأرضي, دبي، الإمارات العربية المتحدة",
    "lat": "25.1145815",
    "lng": "55.1396246",
    "phone": "45833340",
    "email": "nakheel-dubai@Fayendra.com",
    "website": "https://fayendra.com",
    "image": "https://cdn.shopify.com/s/files/1/0720/0371/5297/files/nakheel_dubai.jpg?v=1747137150"
  },
  {
    "name": "الزاهية سيتي سنتر",
    "region": "الشارقة",
    "address": "الزاهية - الشارقة ,الشارقة، الإمارات العربية المتحدة",
    "lat": "25.3006638",
    "lng": "55.4402338",
    "phone": "67158111",
    "email": "zahia-sharjah@fayendra.com",
    "website": "https://fayendra.com",
    "image": "https://cdn.shopify.com/s/files/1/0720/0371/5297/files/zahia_Sharjah.jpg?v=1747127402"
  }
]